{"points":[{"title":"Gangaramaya Buddhist Temple","description":"Magnificent temple complex with international artifacts, museum, and peaceful Beira Lake setting in the heart of the city.","coordinates":{"lat":6.9167145,"lng":79.8566456}},{"title":"Pettah Market District","description":"Vibrant traditional trading center with specialized markets for spices, textiles, gems, and authentic local commerce.","coordinates":{"lat":6.9372017,"lng":79.854187}},{"title":"Galle Face Green","description":"Historic oceanfront promenade offering spectacular sunsets, street food culture, and recreational activities.","coordinates":{"lat":6.9237882,"lng":79.8449324}},{"title":"Colombo Fort District","description":"Historic colonial administrative center featuring magnificent architecture, Clock Tower, and government buildings.","coordinates":{"lat":6.935,"lng":79.848}},{"title":"Red Mosque (Jami Ul-Alfar)","description":"Iconic Indo-Saracenic mosque with distinctive red and white striped architecture and beautiful minarets.","coordinates":{"lat":6.9384322,"lng":79.8517609}},{"title":"Colombo National Museum","description":"Comprehensive collection spanning 2,500 years of Sri Lankan history, art, and cultural artifacts.","coordinates":{"lat":6.9099991,"lng":79.8609032}},{"title":"Independence Memorial Hall","description":"Beautiful Kandyan-style monument commemorating 1948 independence with cultural events and ceremonies.","coordinates":{"lat":6.904162,"lng":79.8675756}},{"title":"Seema Malaka Temple","description":"Peaceful Buddhist temple on Beira Lake island designed by Geoffrey Bawa with tranquil meditation spaces.","coordinates":{"lat":6.9175,"lng":79.8565}},{"title":"St. Lucia's Cathedral","description":"Largest cathedral in Sri Lanka showcasing Gothic Revival architecture and significant Catholic heritage.","coordinates":{"lat":6.948,"lng":79.854}},{"title":"Viharamahadevi Park","description":"Largest park in Colombo offering green spaces, children's playground, and venue for cultural events.","coordinates":{"lat":6.9133907,"lng":79.8617401}},{"title":"Old Parliament Building","description":"Magnificent neoclassical colonial architecture serving as the former seat of Ceylon's legislature.","coordinates":{"lat":6.9311095,"lng":79.8430296}},{"title":"Wolvendaal Church","description":"Historic Dutch Reformed church built in 1749, oldest Protestant church in Sri Lanka with colonial tombstones.","coordinates":{"lat":6.9420848,"lng":79.859072}},{"title":"Sri Kailawasanathan Swami Devasthanam","description":"Oldest Hindu temple in Colombo featuring intricate Dravidian architecture and serving Tamil community.","coordinates":{"lat":6.943,"lng":79.852}},{"title":"Colombo City Centre","description":"Ultra-modern shopping and entertainment complex with international brands, dining, and leisure facilities.","coordinates":{"lat":6.907,"lng":79.8555}},{"title":"Floating Market Pettah","description":"Traditional floating market experience offering fresh produce, spices, and authentic local trading atmosphere.","coordinates":{"lat":6.937,"lng":79.854}},{"title":"Colombo Lighthouse","description":"Historic lighthouse and modern shipping beacon overlooking Colombo Harbor and Indian Ocean.","coordinates":{"lat":6.9365,"lng":79.847}},{"title":"Temple of Sri Subramaniar","description":"Colorful Hindu temple dedicated to Lord Murugan featuring elaborate gopuram and religious festivals.","coordinates":{"lat":6.9375,"lng":79.852}},{"title":"Dutch Period Museum","description":"Beautifully preserved 17th-century Dutch mansion showcasing colonial life and trading relationships.","coordinates":{"lat":6.9355,"lng":79.8485}},{"title":"Khan Clock Tower","description":"Historic timepiece built in 1875 serving as landmark in bustling Pettah district commercial area.","coordinates":{"lat":6.9367,"lng":79.8517}},{"title":"Beira Lake Recreation Area","description":"Urban lake offering boat rides, birdwatching, and peaceful escape with temples on small islands.","coordinates":{"lat":6.9183,"lng":79.8567}}]}