{"points":[{"title":"Galle Fort UNESCO World Heritage Site","description":"Magnificent 52-hectare fortress with 14 bastions representing Asia's finest European colonial fortification and living heritage community.","coordinates":{"lat":6.025833,"lng":80.2175}},{"title":"Galle International Cricket Stadium","description":"World's most scenic cricket venue between fort walls and ocean, hosting international matches since 1998.","coordinates":{"lat":6.031666,"lng":80.216111}},{"title":"Meeran Jumma Mosque","description":"Beautiful 1904 mosque showcasing Victorian-Baroque Islamic architecture within the fort, serving historic Muslim community.","coordinates":{"lat":6.024664,"lng":80.218803}},{"title":"Dutch Reformed Church (Groote Kerk)","description":"Historic baroque church from 1640 with unique Dutch gravestone floor, antique organ, and magnificent colonial architecture.","coordinates":{"lat":6.028201,"lng":80.217109}},{"title":"All Saints Anglican Church","description":"Victorian Gothic church from 1871 with stunning stained glass, carved timber arches, and post-tsunami restoration.","coordinates":{"lat":6.027222,"lng":80.217222}},{"title":"St. Mary's Cathedral","description":"Historic Catholic cathedral founded by Jesuit priests showcasing Portuguese colonial church architecture.","coordinates":{"lat":6.035990192922029,"lng":80.21262354314787}},{"title":"Sudharmalaya Buddhist Temple","description":"Active Buddhist temple within fort walls offering meditation experiences and insight into Sri Lankan Buddhist traditions.","coordinates":{"lat":6.027007,"lng":80.215356}},{"title":"Galle Lighthouse","description":"Iconic 27-meter lighthouse built in 1938 on Utrecht Bastion offering spectacular harbor and ocean views.","coordinates":{"lat":6.024111,"lng":80.219361}},{"title":"National Maritime Museum","description":"Fascinating museum in 17th-century Dutch warehouse showcasing underwater archaeology from over 21 shipwreck sites.","coordinates":{"lat":6.028056,"lng":80.216389}},{"title":"Galle Harbor and Fish Market","description":"Active commercial port and traditional fishing harbor demonstrating 2,000 years of maritime trading traditions.","coordinates":{"lat":6.033653,"lng":80.229908}},{"title":"Central Market (Dutch Market)","description":"Historic market with 300-year-old columned roof offering fresh produce, spices, textiles, and authentic urban experiences.","coordinates":{"lat":6.035810741641387,"lng":80.21978252090287}},{"title":"Flag Rock Bastion","description":"Historic Portuguese bastion transformed into premier sunset viewing point with spectacular ocean vistas.","coordinates":{"lat":6.023694,"lng":80.217486}},{"title":"Old Dutch Hospital Shopping Complex","description":"Restored 18th-century colonial hospital transformed into premier boutique shopping and dining destination.","coordinates":{"lat":6.026667,"lng":80.219444}},{"title":"Galle Clock Tower","description":"Victorian clock tower built in 1882 commemorating Queen Victoria's jubilee, standing as prominent fort landmark.","coordinates":{"lat":6.030028,"lng":80.215112}},{"title":"Point Utrecht Bastion","description":"Strategic bastion housing the lighthouse with underground powder magazine and spectacular harbor views.","coordinates":{"lat":6.024111,"lng":80.219361}},{"title":"Star Bastion","description":"Northwestern bastion offering sweeping ocean views and historical significance as one of the original Dutch fortifications.","coordinates":{"lat":6.0299964,"lng":80.2136573}},{"title":"Moon Bastion","description":"Historic bastion overlooking cricket stadium with commanding views and original Dutch cannon emplacements.","coordinates":{"lat":6.0285,"lng":80.2158}},{"title":"Zwart Bastion","description":"Harbor-facing bastion enlarged by Dutch in 1730 containing unexplored tunnels and strategic defensive positions.","coordinates":{"lat":6.0291295,"lng":80.2192923}},{"title":"Historical Mansion Museum","description":"Private collection in Dutch-era townhouse showcasing antiques, gems, and colonial artifacts.","coordinates":{"lat":6.026,"lng":80.2172}},{"title":"Shiva Temple (Galle)","description":"One of the main Hindu Shiva temples on the island serving the Tamil community with ancient architectural features.","coordinates":{"lat":6.033607553206567,"lng":80.21264318340168}}]}