{"points":[{"title":"Unawatuna Golden Crescent Beach","description":"Iconic kilometer-long crescent-shaped golden sand beach protected by coral reefs, offering perfect swimming conditions, soft sand, and crystal-clear turquoise waters ideal for families and water enthusiasts.","coordinates":{"lat":6.009571839445238,"lng":80.24771443164714}},{"title":"Japanese Peace Pagoda (Rumassala)","description":"Magnificent white Buddhist pagoda built in 1986 by Japanese monks atop mystical Rumassala Hill, offering breathtaking 360-degree views of Unawatuna Bay, Galle Fort, harbor, and the endless Indian Ocean.","coordinates":{"lat":6.0159,"lng":80.2378}},{"title":"Vibrant Coral Reef Gardens","description":"World-class coral reef ecosystem directly accessible from beach featuring colorful corals, tropical fish species, moray eels, and frequent sea turtle sightings in crystal-clear protected waters.","coordinates":{"lat":6.014803400510703,"lng":80.2339598054431}},{"title":"Yatagala Raja Maha Viharaya Temple","description":"Ancient hilltop Buddhist temple complex with historic dagoba offering panoramic views of Unawatuna Bay, traditional architecture, and active religious ceremonies especially during Esala festival.","coordinates":{"lat":6.025,"lng":80.261}},{"title":"Jungle Beach (Hidden Paradise)","description":"Secluded pristine beach accessible via 15-minute jungle trek through Rumassala Hill's unique biodiversity, featuring untouched natural beauty, excellent snorkeling, and peaceful tropical solitude.","coordinates":{"lat":6.0187412784371475,"lng":80.23941894592939}}]}